[
    {
        "city": "Katowice", 
        "admin": "\u015al\u0105skie", 
        "country": "Poland", 
        "population_proper": "308724", 
        "iso2": "PL", 
        "capital": "admin", 
        "lat": "50.258415", 
        "lng": "19.027545", 
        "population": "2746000"
    }, 
    {
        "city": "Warszawa", 
        "admin": "Mazowieckie", 
        "country": "Poland", 
        "population_proper": "1702139", 
        "iso2": "PL", 
        "capital": "primary", 
        "lat": "52.25", 
        "lng": "21.0", 
        "population": "1707000"
    }, 
    {
        "city": "\u0141\u00f3d\u017a", 
        "admin": "\u0141\u00f3dzkie", 
        "country": "Poland", 
        "population_proper": "758000", 
        "iso2": "PL", 
        "capital": "admin", 
        "lat": "51.75", 
        "lng": "19.466667", 
        "population": "758000"
    }, 
    {
        "city": "Krak\u00f3w", 
        "admin": "Ma\u0142opolskie", 
        "country": "Poland", 
        "population_proper": "755050", 
        "iso2": "PL", 
        "capital": "admin", 
        "lat": "50.057531", 
        "lng": "19.980216", 
        "population": "756000"
    }, 
    {
        "city": "Gda\u0144sk", 
        "admin": "Pomorskie", 
        "country": "Poland", 
        "population_proper": "455830", 
        "iso2": "PL", 
        "capital": "admin", 
        "lat": "54.36085", 
        "lng": "18.658291", 
        "population": "740000"
    }, 
    {
        "city": "Bytom", 
        "admin": "\u015al\u0105skie", 
        "country": "Poland", 
        "population_proper": "189186", 
        "iso2": "PL", 
        "capital": "minor", 
        "lat": "50.348017", 
        "lng": "18.932822", 
        "population": "662247"
    }, 
    {
        "city": "Wroc\u0142aw", 
        "admin": "Dolno\u015bl\u0105skie", 
        "country": "Poland", 
        "population_proper": "610049", 
        "iso2": "PL", 
        "capital": "admin", 
        "lat": "51.1", 
        "lng": "17.033333", 
        "population": "634893"
    }, 
    {
        "city": "Pozna\u0144", 
        "admin": "Wielkopolskie", 
        "country": "Poland", 
        "population_proper": "570352", 
        "iso2": "PL", 
        "capital": "admin", 
        "lat": "52.416667", 
        "lng": "16.966667", 
        "population": "623997"
    }, 
    {
        "city": "Gliwice", 
        "admin": "\u015al\u0105skie", 
        "country": "Poland", 
        "population_proper": "198835", 
        "iso2": "PL", 
        "capital": "minor", 
        "lat": "50.297612", 
        "lng": "18.676583", 
        "population": "507670"
    }, 
    {
        "city": "Szczecin", 
        "admin": "Zachodniopomorskie", 
        "country": "Poland", 
        "population_proper": "372672", 
        "iso2": "PL", 
        "capital": "admin", 
        "lat": "53.439531", 
        "lng": "14.593891", 
        "population": "407811"
    }, 
    {
        "city": "Bydgoszcz", 
        "admin": "Kujawsko-Pomorskie", 
        "country": "Poland", 
        "population_proper": "365992", 
        "iso2": "PL", 
        "capital": "admin", 
        "lat": "53.127062", 
        "lng": "18.019987", 
        "population": "366452"
    }, 
    {
        "city": "Lublin", 
        "admin": "Lubelskie", 
        "country": "Poland", 
        "population_proper": "355958", 
        "iso2": "PL", 
        "capital": "admin", 
        "lat": "51.25", 
        "lng": "22.566667", 
        "population": "360044"
    }, 
    {
        "city": "Gdynia", 
        "admin": "Pomorskie", 
        "country": "Poland", 
        "population_proper": "253730", 
        "iso2": "PL", 
        "capital": "minor", 
        "lat": "54.5", 
        "lng": "18.55", 
        "population": "314664"
    }, 
    {
        "city": "Bia\u0142ystok", 
        "admin": "Podlaskie", 
        "country": "Poland", 
        "population_proper": "285590", 
        "iso2": "PL", 
        "capital": "admin", 
        "lat": "53.133333", 
        "lng": "23.15", 
        "population": "291855"
    }, 
    {
        "city": "Rzesz\u00f3w", 
        "admin": "Podkarpackie", 
        "country": "Poland", 
        "population_proper": "158382", 
        "iso2": "PL", 
        "capital": "admin", 
        "lat": "50.037246", 
        "lng": "22.004949", 
        "population": "245686"
    }, 
    {
        "city": "Kielce", 
        "admin": "\u015awi\u0119tokrzyskie", 
        "country": "Poland", 
        "population_proper": "208598", 
        "iso2": "PL", 
        "capital": "admin", 
        "lat": "50.873686", 
        "lng": "20.630266", 
        "population": "215733"
    }, 
    {
        "city": "Olsztyn", 
        "admin": "Warmi\u0144sko-Mazurskie", 
        "country": "Poland", 
        "population_proper": "171803", 
        "iso2": "PL", 
        "capital": "admin", 
        "lat": "53.779949", 
        "lng": "20.494162", 
        "population": "186670"
    }, 
    {
        "city": "Opole", 
        "admin": "Opolskie", 
        "country": "Poland", 
        "population_proper": "127676", 
        "iso2": "PL", 
        "capital": "admin", 
        "lat": "50.672115", 
        "lng": "17.925325", 
        "population": "131412"
    }, 
    {
        "city": "Elbl\u0105g", 
        "admin": "Warmi\u0144sko-Mazurskie", 
        "country": "Poland", 
        "population_proper": "121106", 
        "iso2": "PL", 
        "capital": "minor", 
        "lat": "54.1522", 
        "lng": "19.408841", 
        "population": "127558"
    }, 
    {
        "city": "Zielona G\u00f3ra", 
        "admin": "Lubuskie", 
        "country": "Poland", 
        "population_proper": "109298", 
        "iso2": "PL", 
        "capital": "admin", 
        "lat": "51.939345", 
        "lng": "15.505772", 
        "population": "118433"
    }, 
    {
        "city": "Koszalin", 
        "admin": "Zachodniopomorskie", 
        "country": "Poland", 
        "population_proper": "107450", 
        "iso2": "PL", 
        "capital": "minor", 
        "lat": "54.193589", 
        "lng": "16.184916", 
        "population": "107450"
    }, 
    {
        "city": "Twierdza Grudziadz", 
        "admin": "Kujawsko-Pomorskie", 
        "country": "Poland", 
        "population_proper": "99486", 
        "iso2": "PL", 
        "capital": "", 
        "lat": "53.5", 
        "lng": "18.75", 
        "population": "102443"
    }, 
    {
        "city": "Inowroc\u0142aw", 
        "admin": "Kujawsko-Pomorskie", 
        "country": "Poland", 
        "population_proper": "77597", 
        "iso2": "PL", 
        "capital": "minor", 
        "lat": "52.798858", 
        "lng": "18.263875", 
        "population": "79007"
    }, 
    {
        "city": "E\u0142k", 
        "admin": "Warmi\u0144sko-Mazurskie", 
        "country": "Poland", 
        "population_proper": "46856", 
        "iso2": "PL", 
        "capital": "minor", 
        "lat": "53.826478", 
        "lng": "22.365416", 
        "population": "55769"
    }, 
    {
        "city": "Nak\u0142o nad Noteci\u0105", 
        "admin": "Kujawsko-Pomorskie", 
        "country": "Poland", 
        "population_proper": "", 
        "iso2": "PL", 
        "capital": "minor", 
        "lat": "53.141874", 
        "lng": "17.602976", 
        "population": ""
    }, 
    {
        "city": "Ustrzyki Dolne", 
        "admin": "Podkarpackie", 
        "country": "Poland", 
        "population_proper": "", 
        "iso2": "PL", 
        "capital": "minor", 
        "lat": "49.430858", 
        "lng": "22.584761", 
        "population": ""
    }, 
    {
        "city": "S\u0119p\u00f3lno Kraje\u0144skie", 
        "admin": "Kujawsko-Pomorskie", 
        "country": "Poland", 
        "population_proper": "", 
        "iso2": "PL", 
        "capital": "minor", 
        "lat": "53.452046", 
        "lng": "17.539826", 
        "population": ""
    }, 
    {
        "city": "Gorlice", 
        "admin": "Ma\u0142opolskie", 
        "country": "Poland", 
        "population_proper": "", 
        "iso2": "PL", 
        "capital": "minor", 
        "lat": "49.658084", 
        "lng": "21.159693", 
        "population": ""
    }, 
    {
        "city": "Nowy Targ", 
        "admin": "Ma\u0142opolskie", 
        "country": "Poland", 
        "population_proper": "", 
        "iso2": "PL", 
        "capital": "minor", 
        "lat": "49.477579", 
        "lng": "20.029205", 
        "population": ""
    }, 
    {
        "city": "Nowy Tomy\u015bl", 
        "admin": "Wielkopolskie", 
        "country": "Poland", 
        "population_proper": "", 
        "iso2": "PL", 
        "capital": "minor", 
        "lat": "52.316477", 
        "lng": "16.133629", 
        "population": ""
    }, 
    {
        "city": "\u0141ask", 
        "admin": "\u0141\u00f3dzkie", 
        "country": "Poland", 
        "population_proper": "", 
        "iso2": "PL", 
        "capital": "minor", 
        "lat": "51.588037", 
        "lng": "19.125084", 
        "population": ""
    }, 
    {
        "city": "Boles\u0142awiec", 
        "admin": "Dolno\u015bl\u0105skie", 
        "country": "Poland", 
        "population_proper": "", 
        "iso2": "PL", 
        "capital": "minor", 
        "lat": "51.264183", 
        "lng": "15.569703", 
        "population": ""
    }, 
    {
        "city": "Olecko", 
        "admin": "Warmi\u0144sko-Mazurskie", 
        "country": "Poland", 
        "population_proper": "", 
        "iso2": "PL", 
        "capital": "minor", 
        "lat": "54.036431", 
        "lng": "22.508387", 
        "population": ""
    }, 
    {
        "city": "Bia\u0142a Podlaska", 
        "admin": "Lubelskie", 
        "country": "Poland", 
        "population_proper": "", 
        "iso2": "PL", 
        "capital": "minor", 
        "lat": "52.03129", 
        "lng": "23.121418", 
        "population": ""
    }, 
    {
        "city": "Polkowice", 
        "admin": "Dolno\u015bl\u0105skie", 
        "country": "Poland", 
        "population_proper": "", 
        "iso2": "PL", 
        "capital": "minor", 
        "lat": "51.50618", 
        "lng": "16.072623", 
        "population": ""
    }, 
    {
        "city": "Nisko", 
        "admin": "Podkarpackie", 
        "country": "Poland", 
        "population_proper": "", 
        "iso2": "PL", 
        "capital": "minor", 
        "lat": "50.518509", 
        "lng": "22.144659", 
        "population": ""
    }, 
    {
        "city": "Brzoz\u00f3w", 
        "admin": "Podkarpackie", 
        "country": "Poland", 
        "population_proper": "", 
        "iso2": "PL", 
        "capital": "minor", 
        "lat": "49.695431", 
        "lng": "22.020189", 
        "population": ""
    }, 
    {
        "city": "Ruda \u015al\u0105ska", 
        "admin": "\u015al\u0105skie", 
        "country": "Poland", 
        "population_proper": "", 
        "iso2": "PL", 
        "capital": "minor", 
        "lat": "50.307941", 
        "lng": "18.855156", 
        "population": ""
    }, 
    {
        "city": "Be\u0142chat\u00f3w", 
        "admin": "\u0141\u00f3dzkie", 
        "country": "Poland", 
        "population_proper": "", 
        "iso2": "PL", 
        "capital": "minor", 
        "lat": "51.366503", 
        "lng": "19.374485", 
        "population": ""
    }, 
    {
        "city": "Brodnica", 
        "admin": "Kujawsko-Pomorskie", 
        "country": "Poland", 
        "population_proper": "", 
        "iso2": "PL", 
        "capital": "minor", 
        "lat": "53.25", 
        "lng": "19.4", 
        "population": ""
    }, 
    {
        "city": "Tychy", 
        "admin": "\u015al\u0105skie", 
        "country": "Poland", 
        "population_proper": "", 
        "iso2": "PL", 
        "capital": "minor", 
        "lat": "50.137167", 
        "lng": "18.96641", 
        "population": ""
    }, 
    {
        "city": "Oborniki", 
        "admin": "Wielkopolskie", 
        "country": "Poland", 
        "population_proper": "", 
        "iso2": "PL", 
        "capital": "minor", 
        "lat": "52.647394", 
        "lng": "16.814061", 
        "population": ""
    }, 
    {
        "city": "Choszczno", 
        "admin": "Zachodniopomorskie", 
        "country": "Poland", 
        "population_proper": "", 
        "iso2": "PL", 
        "capital": "minor", 
        "lat": "53.169051", 
        "lng": "15.420537", 
        "population": ""
    }, 
    {
        "city": "Lesko", 
        "admin": "Podkarpackie", 
        "country": "Poland", 
        "population_proper": "", 
        "iso2": "PL", 
        "capital": "minor", 
        "lat": "49.47113", 
        "lng": "22.329802", 
        "population": ""
    }, 
    {
        "city": "B\u0119dzin", 
        "admin": "\u015al\u0105skie", 
        "country": "Poland", 
        "population_proper": "", 
        "iso2": "PL", 
        "capital": "minor", 
        "lat": "50.319705", 
        "lng": "19.145249", 
        "population": ""
    }, 
    {
        "city": "Hrubiesz\u00f3w", 
        "admin": "Lubelskie", 
        "country": "Poland", 
        "population_proper": "", 
        "iso2": "PL", 
        "capital": "minor", 
        "lat": "50.805019", 
        "lng": "23.892508", 
        "population": ""
    }, 
    {
        "city": "Sztum", 
        "admin": "Pomorskie", 
        "country": "Poland", 
        "population_proper": "", 
        "iso2": "PL", 
        "capital": "minor", 
        "lat": "53.920268", 
        "lng": "19.031101", 
        "population": ""
    }, 
    {
        "city": "\u015awi\u0119toch\u0142owice", 
        "admin": "\u015al\u0105skie", 
        "country": "Poland", 
        "population_proper": "", 
        "iso2": "PL", 
        "capital": "minor", 
        "lat": "50.292455", 
        "lng": "18.914684", 
        "population": ""
    }, 
    {
        "city": "Strzelin", 
        "admin": "Dolno\u015bl\u0105skie", 
        "country": "Poland", 
        "population_proper": "", 
        "iso2": "PL", 
        "capital": "minor", 
        "lat": "50.783958", 
        "lng": "17.066399", 
        "population": ""
    }, 
    {
        "city": "Zwole\u0144", 
        "admin": "Mazowieckie", 
        "country": "Poland", 
        "population_proper": "", 
        "iso2": "PL", 
        "capital": "minor", 
        "lat": "51.355901", 
        "lng": "21.582678", 
        "population": ""
    }, 
    {
        "city": "G\u0142og\u00f3w", 
        "admin": "Dolno\u015bl\u0105skie", 
        "country": "Poland", 
        "population_proper": "", 
        "iso2": "PL", 
        "capital": "minor", 
        "lat": "51.663026", 
        "lng": "16.075688", 
        "population": ""
    }, 
    {
        "city": "Grodzisk Mazowiecki", 
        "admin": "Mazowieckie", 
        "country": "Poland", 
        "population_proper": "", 
        "iso2": "PL", 
        "capital": "minor", 
        "lat": "52.106384", 
        "lng": "20.623141", 
        "population": ""
    }, 
    {
        "city": "Pruszk\u00f3w", 
        "admin": "Mazowieckie", 
        "country": "Poland", 
        "population_proper": "", 
        "iso2": "PL", 
        "capital": "minor", 
        "lat": "52.162608", 
        "lng": "20.812948", 
        "population": ""
    }, 
    {
        "city": "Radomsko", 
        "admin": "\u0141\u00f3dzkie", 
        "country": "Poland", 
        "population_proper": "", 
        "iso2": "PL", 
        "capital": "minor", 
        "lat": "51.066749", 
        "lng": "19.454424", 
        "population": ""
    }, 
    {
        "city": "Police", 
        "admin": "Zachodniopomorskie", 
        "country": "Poland", 
        "population_proper": "", 
        "iso2": "PL", 
        "capital": "minor", 
        "lat": "53.542062", 
        "lng": "14.555212", 
        "population": ""
    }, 
    {
        "city": "Rypin", 
        "admin": "Kujawsko-Pomorskie", 
        "country": "Poland", 
        "population_proper": "", 
        "iso2": "PL", 
        "capital": "minor", 
        "lat": "53.067489", 
        "lng": "19.415666", 
        "population": ""
    }, 
    {
        "city": "O\u017car\u00f3w Mazowiecki", 
        "admin": "Mazowieckie", 
        "country": "Poland", 
        "population_proper": "", 
        "iso2": "PL", 
        "capital": "minor", 
        "lat": "52.233333", 
        "lng": "20.85", 
        "population": ""
    }, 
    {
        "city": "Wodzis\u0142aw \u015al\u0105ski", 
        "admin": "\u015al\u0105skie", 
        "country": "Poland", 
        "population_proper": "", 
        "iso2": "PL", 
        "capital": "minor", 
        "lat": "50.010983", 
        "lng": "18.455074", 
        "population": ""
    }, 
    {
        "city": "Zabrze", 
        "admin": "\u015al\u0105skie", 
        "country": "Poland", 
        "population_proper": "", 
        "iso2": "PL", 
        "capital": "minor", 
        "lat": "50.306355", 
        "lng": "18.783333", 
        "population": ""
    }, 
    {
        "city": "Paj\u0119czno", 
        "admin": "\u0141\u00f3dzkie", 
        "country": "Poland", 
        "population_proper": "", 
        "iso2": "PL", 
        "capital": "minor", 
        "lat": "51.144491", 
        "lng": "18.996116", 
        "population": ""
    }, 
    {
        "city": "Sok\u00f3\u0142ka", 
        "admin": "Podlaskie", 
        "country": "Poland", 
        "population_proper": "", 
        "iso2": "PL", 
        "capital": "minor", 
        "lat": "53.407154", 
        "lng": "23.502278", 
        "population": ""
    }, 
    {
        "city": "Ostrzesz\u00f3w", 
        "admin": "Wielkopolskie", 
        "country": "Poland", 
        "population_proper": "", 
        "iso2": "PL", 
        "capital": "minor", 
        "lat": "51.425661", 
        "lng": "17.930084", 
        "population": ""
    }, 
    {
        "city": "Pszczyna", 
        "admin": "\u015al\u0105skie", 
        "country": "Poland", 
        "population_proper": "", 
        "iso2": "PL", 
        "capital": "minor", 
        "lat": "49.976483", 
        "lng": "18.947323", 
        "population": ""
    }, 
    {
        "city": "Jarocin", 
        "admin": "Wielkopolskie", 
        "country": "Poland", 
        "population_proper": "", 
        "iso2": "PL", 
        "capital": "minor", 
        "lat": "51.97076", 
        "lng": "17.498773", 
        "population": ""
    }, 
    {
        "city": "Luba\u0144", 
        "admin": "Dolno\u015bl\u0105skie", 
        "country": "Poland", 
        "population_proper": "", 
        "iso2": "PL", 
        "capital": "minor", 
        "lat": "51.120143", 
        "lng": "15.287678", 
        "population": ""
    }, 
    {
        "city": "Lubacz\u00f3w", 
        "admin": "Podkarpackie", 
        "country": "Poland", 
        "population_proper": "", 
        "iso2": "PL", 
        "capital": "minor", 
        "lat": "50.159707", 
        "lng": "23.122425", 
        "population": ""
    }, 
    {
        "city": "Bielsko-Bia\u0142a", 
        "admin": "\u015al\u0105skie", 
        "country": "Poland", 
        "population_proper": "", 
        "iso2": "PL", 
        "capital": "minor", 
        "lat": "49.822449", 
        "lng": "19.046863", 
        "population": ""
    }, 
    {
        "city": "Kamie\u0144 Pomorski", 
        "admin": "Zachodniopomorskie", 
        "country": "Poland", 
        "population_proper": "", 
        "iso2": "PL", 
        "capital": "minor", 
        "lat": "53.968946", 
        "lng": "14.772834", 
        "population": ""
    }, 
    {
        "city": "Szyd\u0142owiec", 
        "admin": "Mazowieckie", 
        "country": "Poland", 
        "population_proper": "", 
        "iso2": "PL", 
        "capital": "minor", 
        "lat": "51.224862", 
        "lng": "20.858566", 
        "population": ""
    }, 
    {
        "city": "\u017baga\u0144", 
        "admin": "Lubuskie", 
        "country": "Poland", 
        "population_proper": "", 
        "iso2": "PL", 
        "capital": "minor", 
        "lat": "51.615804", 
        "lng": "15.314769", 
        "population": ""
    }, 
    {
        "city": "Cieszyn", 
        "admin": "\u015al\u0105skie", 
        "country": "Poland", 
        "population_proper": "", 
        "iso2": "PL", 
        "capital": "minor", 
        "lat": "49.74634", 
        "lng": "18.636093", 
        "population": ""
    }, 
    {
        "city": "Jaworzno", 
        "admin": "\u015al\u0105skie", 
        "country": "Poland", 
        "population_proper": "", 
        "iso2": "PL", 
        "capital": "minor", 
        "lat": "50.206025", 
        "lng": "19.270062", 
        "population": ""
    }, 
    {
        "city": "Lidzbark Warmi\u0144ski", 
        "admin": "Warmi\u0144sko-Mazurskie", 
        "country": "Poland", 
        "population_proper": "", 
        "iso2": "PL", 
        "capital": "minor", 
        "lat": "54.128687", 
        "lng": "20.57807", 
        "population": ""
    }, 
    {
        "city": "W\u0119gr\u00f3w", 
        "admin": "Mazowieckie", 
        "country": "Poland", 
        "population_proper": "", 
        "iso2": "PL", 
        "capital": "minor", 
        "lat": "52.401958", 
        "lng": "22.016667", 
        "population": ""
    }, 
    {
        "city": "Czarnk\u00f3w", 
        "admin": "Wielkopolskie", 
        "country": "Poland", 
        "population_proper": "", 
        "iso2": "PL", 
        "capital": "minor", 
        "lat": "52.902144", 
        "lng": "16.564126", 
        "population": ""
    }, 
    {
        "city": "Wierusz\u00f3w", 
        "admin": "\u0141\u00f3dzkie", 
        "country": "Poland", 
        "population_proper": "", 
        "iso2": "PL", 
        "capital": "minor", 
        "lat": "51.298167", 
        "lng": "18.157387", 
        "population": ""
    }, 
    {
        "city": "K\u0119trzyn", 
        "admin": "Warmi\u0144sko-Mazurskie", 
        "country": "Poland", 
        "population_proper": "", 
        "iso2": "PL", 
        "capital": "minor", 
        "lat": "54.079293", 
        "lng": "21.370583", 
        "population": ""
    }, 
    {
        "city": "Stargard Szczeci\u0144ski", 
        "admin": "Zachodniopomorskie", 
        "country": "Poland", 
        "population_proper": "", 
        "iso2": "PL", 
        "capital": "minor", 
        "lat": "53.341761", 
        "lng": "15.052135", 
        "population": ""
    }, 
    {
        "city": "Wadowice", 
        "admin": "Ma\u0142opolskie", 
        "country": "Poland", 
        "population_proper": "", 
        "iso2": "PL", 
        "capital": "minor", 
        "lat": "49.884086", 
        "lng": "19.491489", 
        "population": ""
    }, 
    {
        "city": "Gniezno", 
        "admin": "Wielkopolskie", 
        "country": "Poland", 
        "population_proper": "", 
        "iso2": "PL", 
        "capital": "minor", 
        "lat": "52.53944", 
        "lng": "17.611262", 
        "population": ""
    }, 
    {
        "city": "S\u0142upca", 
        "admin": "Wielkopolskie", 
        "country": "Poland", 
        "population_proper": "", 
        "iso2": "PL", 
        "capital": "minor", 
        "lat": "52.290352", 
        "lng": "17.873101", 
        "population": ""
    }, 
    {
        "city": "Opat\u00f3w", 
        "admin": "\u015awi\u0119tokrzyskie", 
        "country": "Poland", 
        "population_proper": "", 
        "iso2": "PL", 
        "capital": "minor", 
        "lat": "50.800952", 
        "lng": "21.423434", 
        "population": ""
    }, 
    {
        "city": "Wejherowo", 
        "admin": "Pomorskie", 
        "country": "Poland", 
        "population_proper": "", 
        "iso2": "PL", 
        "capital": "minor", 
        "lat": "54.605211", 
        "lng": "18.235514", 
        "population": ""
    }, 
    {
        "city": "\u0141\u0119czna", 
        "admin": "Lubelskie", 
        "country": "Poland", 
        "population_proper": "", 
        "iso2": "PL", 
        "capital": "minor", 
        "lat": "51.304588", 
        "lng": "22.883235", 
        "population": ""
    }, 
    {
        "city": "Bia\u0142obrzegi", 
        "admin": "Mazowieckie", 
        "country": "Poland", 
        "population_proper": "", 
        "iso2": "PL", 
        "capital": "minor", 
        "lat": "51.646641", 
        "lng": "20.950269", 
        "population": ""
    }, 
    {
        "city": "Olkusz", 
        "admin": "Ma\u0142opolskie", 
        "country": "Poland", 
        "population_proper": "", 
        "iso2": "PL", 
        "capital": "minor", 
        "lat": "50.27916", 
        "lng": "19.563162", 
        "population": ""
    }, 
    {
        "city": "Zamo\u015b\u0107", 
        "admin": "Lubelskie", 
        "country": "Poland", 
        "population_proper": "", 
        "iso2": "PL", 
        "capital": "minor", 
        "lat": "50.724679", 
        "lng": "23.260629", 
        "population": ""
    }, 
    {
        "city": "Lipno", 
        "admin": "Kujawsko-Pomorskie", 
        "country": "Poland", 
        "population_proper": "", 
        "iso2": "PL", 
        "capital": "minor", 
        "lat": "52.845174", 
        "lng": "19.182561", 
        "population": ""
    }, 
    {
        "city": "\u0141a\u0144cut", 
        "admin": "Podkarpackie", 
        "country": "Poland", 
        "population_proper": "", 
        "iso2": "PL", 
        "capital": "minor", 
        "lat": "50.06819", 
        "lng": "22.228955", 
        "population": ""
    }, 
    {
        "city": "Parczew", 
        "admin": "Lubelskie", 
        "country": "Poland", 
        "population_proper": "", 
        "iso2": "PL", 
        "capital": "minor", 
        "lat": "51.642884", 
        "lng": "22.908449", 
        "population": ""
    }, 
    {
        "city": "Limanowa", 
        "admin": "Ma\u0142opolskie", 
        "country": "Poland", 
        "population_proper": "", 
        "iso2": "PL", 
        "capital": "minor", 
        "lat": "49.704128", 
        "lng": "20.42245", 
        "population": ""
    }, 
    {
        "city": "Tarnowskie G\u00f3ry", 
        "admin": "\u015al\u0105skie", 
        "country": "Poland", 
        "population_proper": "", 
        "iso2": "PL", 
        "capital": "minor", 
        "lat": "50.448546", 
        "lng": "18.851463", 
        "population": ""
    }, 
    {
        "city": "K\u0142obuck", 
        "admin": "\u015al\u0105skie", 
        "country": "Poland", 
        "population_proper": "", 
        "iso2": "PL", 
        "capital": "minor", 
        "lat": "50.90298", 
        "lng": "18.937036", 
        "population": ""
    }, 
    {
        "city": "Pyrzyce", 
        "admin": "Zachodniopomorskie", 
        "country": "Poland", 
        "population_proper": "", 
        "iso2": "PL", 
        "capital": "minor", 
        "lat": "53.145647", 
        "lng": "14.892897", 
        "population": ""
    }, 
    {
        "city": "Tuchola", 
        "admin": "Kujawsko-Pomorskie", 
        "country": "Poland", 
        "population_proper": "", 
        "iso2": "PL", 
        "capital": "minor", 
        "lat": "53.586661", 
        "lng": "17.86059", 
        "population": ""
    }, 
    {
        "city": "Starachowice", 
        "admin": "\u015awi\u0119tokrzyskie", 
        "country": "Poland", 
        "population_proper": "", 
        "iso2": "PL", 
        "capital": "minor", 
        "lat": "51.051914", 
        "lng": "21.088273", 
        "population": ""
    }, 
    {
        "city": "Kartuzy", 
        "admin": "Pomorskie", 
        "country": "Poland", 
        "population_proper": "", 
        "iso2": "PL", 
        "capital": "minor", 
        "lat": "54.333333", 
        "lng": "18.2", 
        "population": ""
    }, 
    {
        "city": "Lubart\u00f3w", 
        "admin": "Lubelskie", 
        "country": "Poland", 
        "population_proper": "", 
        "iso2": "PL", 
        "capital": "minor", 
        "lat": "51.462888", 
        "lng": "22.607754", 
        "population": ""
    }, 
    {
        "city": "Sanok", 
        "admin": "Podkarpackie", 
        "country": "Poland", 
        "population_proper": "", 
        "iso2": "PL", 
        "capital": "minor", 
        "lat": "49.558958", 
        "lng": "22.202951", 
        "population": ""
    }, 
    {
        "city": "Wysokie Mazowieckie", 
        "admin": "Podlaskie", 
        "country": "Poland", 
        "population_proper": "", 
        "iso2": "PL", 
        "capital": "minor", 
        "lat": "52.917069", 
        "lng": "22.511442", 
        "population": ""
    }, 
    {
        "city": "Nowy Dw\u00f3r Gda\u0144ski", 
        "admin": "Pomorskie", 
        "country": "Poland", 
        "population_proper": "", 
        "iso2": "PL", 
        "capital": "minor", 
        "lat": "54.21305", 
        "lng": "19.117714", 
        "population": ""
    }, 
    {
        "city": "Nowy Dw\u00f3r Mazowiecki", 
        "admin": "Mazowieckie", 
        "country": "Poland", 
        "population_proper": "", 
        "iso2": "PL", 
        "capital": "minor", 
        "lat": "52.430356", 
        "lng": "20.715855", 
        "population": ""
    }, 
    {
        "city": "Pi\u0142a", 
        "admin": "Wielkopolskie", 
        "country": "Poland", 
        "population_proper": "", 
        "iso2": "PL", 
        "capital": "minor", 
        "lat": "53.154997", 
        "lng": "16.746074", 
        "population": ""
    }, 
    {
        "city": "Nowe Miasto Lubawskie", 
        "admin": "Warmi\u0144sko-Mazurskie", 
        "country": "Poland", 
        "population_proper": "", 
        "iso2": "PL", 
        "capital": "minor", 
        "lat": "53.422694", 
        "lng": "19.592512", 
        "population": ""
    }, 
    {
        "city": "\u017byrard\u00f3w", 
        "admin": "Mazowieckie", 
        "country": "Poland", 
        "population_proper": "", 
        "iso2": "PL", 
        "capital": "minor", 
        "lat": "52.055392", 
        "lng": "20.441451", 
        "population": ""
    }, 
    {
        "city": "Sucha Beskidzka", 
        "admin": "Ma\u0142opolskie", 
        "country": "Poland", 
        "population_proper": "", 
        "iso2": "PL", 
        "capital": "minor", 
        "lat": "49.737591", 
        "lng": "19.587148", 
        "population": ""
    }, 
    {
        "city": "Gosty\u0144", 
        "admin": "Wielkopolskie", 
        "country": "Poland", 
        "population_proper": "", 
        "iso2": "PL", 
        "capital": "minor", 
        "lat": "51.882468", 
        "lng": "17.012255", 
        "population": ""
    }, 
    {
        "city": "Che\u0142m", 
        "admin": "Lubelskie", 
        "country": "Poland", 
        "population_proper": "", 
        "iso2": "PL", 
        "capital": "minor", 
        "lat": "51.135831", 
        "lng": "23.482511", 
        "population": ""
    }, 
    {
        "city": "Sochaczew", 
        "admin": "Mazowieckie", 
        "country": "Poland", 
        "population_proper": "", 
        "iso2": "PL", 
        "capital": "minor", 
        "lat": "52.233333", 
        "lng": "20.25", 
        "population": ""
    }, 
    {
        "city": "Le\u017cajsk", 
        "admin": "Podkarpackie", 
        "country": "Poland", 
        "population_proper": "", 
        "iso2": "PL", 
        "capital": "minor", 
        "lat": "50.260132", 
        "lng": "22.421242", 
        "population": ""
    }, 
    {
        "city": "Mogilno", 
        "admin": "Kujawsko-Pomorskie", 
        "country": "Poland", 
        "population_proper": "", 
        "iso2": "PL", 
        "capital": "minor", 
        "lat": "52.660492", 
        "lng": "17.956662", 
        "population": ""
    }, 
    {
        "city": "Sierpc", 
        "admin": "Mazowieckie", 
        "country": "Poland", 
        "population_proper": "", 
        "iso2": "PL", 
        "capital": "minor", 
        "lat": "52.852857", 
        "lng": "19.668927", 
        "population": ""
    }, 
    {
        "city": "Ryki", 
        "admin": "Lubelskie", 
        "country": "Poland", 
        "population_proper": "", 
        "iso2": "PL", 
        "capital": "minor", 
        "lat": "51.623966", 
        "lng": "21.933517", 
        "population": ""
    }, 
    {
        "city": "Racib\u00f3rz", 
        "admin": "\u015al\u0105skie", 
        "country": "Poland", 
        "population_proper": "", 
        "iso2": "PL", 
        "capital": "minor", 
        "lat": "50.090569", 
        "lng": "18.207455", 
        "population": ""
    }, 
    {
        "city": "Stasz\u00f3w", 
        "admin": "\u015awi\u0119tokrzyskie", 
        "country": "Poland", 
        "population_proper": "", 
        "iso2": "PL", 
        "capital": "minor", 
        "lat": "50.56342", 
        "lng": "21.168666", 
        "population": ""
    }, 
    {
        "city": "Che\u0142mno", 
        "admin": "Kujawsko-Pomorskie", 
        "country": "Poland", 
        "population_proper": "", 
        "iso2": "PL", 
        "capital": "minor", 
        "lat": "53.35", 
        "lng": "18.433333", 
        "population": ""
    }, 
    {
        "city": "D\u0105browa G\u00f3rnicza", 
        "admin": "\u015al\u0105skie", 
        "country": "Poland", 
        "population_proper": "", 
        "iso2": "PL", 
        "capital": "minor", 
        "lat": "50.326206", 
        "lng": "19.224381", 
        "population": ""
    }, 
    {
        "city": "Garwolin", 
        "admin": "Mazowieckie", 
        "country": "Poland", 
        "population_proper": "", 
        "iso2": "PL", 
        "capital": "minor", 
        "lat": "51.897384", 
        "lng": "21.614392", 
        "population": ""
    }, 
    {
        "city": "Krasnystaw", 
        "admin": "Lubelskie", 
        "country": "Poland", 
        "population_proper": "", 
        "iso2": "PL", 
        "capital": "minor", 
        "lat": "50.985028", 
        "lng": "23.172715", 
        "population": ""
    }, 
    {
        "city": "Kozienice", 
        "admin": "Mazowieckie", 
        "country": "Poland", 
        "population_proper": "", 
        "iso2": "PL", 
        "capital": "minor", 
        "lat": "51.583602", 
        "lng": "21.549937", 
        "population": ""
    }, 
    {
        "city": "Mys\u0142owice", 
        "admin": "\u015al\u0105skie", 
        "country": "Poland", 
        "population_proper": "", 
        "iso2": "PL", 
        "capital": "minor", 
        "lat": "50.236209", 
        "lng": "19.141123", 
        "population": ""
    }, 
    {
        "city": "Zgorzelec", 
        "admin": "Dolno\u015bl\u0105skie", 
        "country": "Poland", 
        "population_proper": "", 
        "iso2": "PL", 
        "capital": "minor", 
        "lat": "51.153659", 
        "lng": "15.008839", 
        "population": ""
    }, 
    {
        "city": "S\u0142upsk", 
        "admin": "Pomorskie", 
        "country": "Poland", 
        "population_proper": "", 
        "iso2": "PL", 
        "capital": "minor", 
        "lat": "54.467761", 
        "lng": "17.027457", 
        "population": ""
    }, 
    {
        "city": "Turek", 
        "admin": "Wielkopolskie", 
        "country": "Poland", 
        "population_proper": "", 
        "iso2": "PL", 
        "capital": "minor", 
        "lat": "52.017722", 
        "lng": "18.50559", 
        "population": ""
    }, 
    {
        "city": "\u017bnin", 
        "admin": "Kujawsko-Pomorskie", 
        "country": "Poland", 
        "population_proper": "", 
        "iso2": "PL", 
        "capital": "minor", 
        "lat": "52.853617", 
        "lng": "17.716677", 
        "population": ""
    }, 
    {
        "city": "Skierniewice", 
        "admin": "\u0141\u00f3dzkie", 
        "country": "Poland", 
        "population_proper": "", 
        "iso2": "PL", 
        "capital": "minor", 
        "lat": "51.966667", 
        "lng": "20.15", 
        "population": ""
    }, 
    {
        "city": "Sejny", 
        "admin": "Podlaskie", 
        "country": "Poland", 
        "population_proper": "", 
        "iso2": "PL", 
        "capital": "minor", 
        "lat": "54.107505", 
        "lng": "23.34792", 
        "population": ""
    }, 
    {
        "city": "Pisz", 
        "admin": "Warmi\u0144sko-Mazurskie", 
        "country": "Poland", 
        "population_proper": "", 
        "iso2": "PL", 
        "capital": "minor", 
        "lat": "53.627444", 
        "lng": "21.812528", 
        "population": ""
    }, 
    {
        "city": "Wielu\u0144", 
        "admin": "\u0141\u00f3dzkie", 
        "country": "Poland", 
        "population_proper": "", 
        "iso2": "PL", 
        "capital": "minor", 
        "lat": "51.221009", 
        "lng": "18.566548", 
        "population": ""
    }, 
    {
        "city": "\u015awiecie", 
        "admin": "Kujawsko-Pomorskie", 
        "country": "Poland", 
        "population_proper": "", 
        "iso2": "PL", 
        "capital": "minor", 
        "lat": "53.409527", 
        "lng": "18.44512", 
        "population": ""
    }, 
    {
        "city": "Stalowa Wola", 
        "admin": "Podkarpackie", 
        "country": "Poland", 
        "population_proper": "", 
        "iso2": "PL", 
        "capital": "minor", 
        "lat": "50.551635", 
        "lng": "22.051089", 
        "population": ""
    }, 
    {
        "city": "Tczew", 
        "admin": "Pomorskie", 
        "country": "Poland", 
        "population_proper": "", 
        "iso2": "PL", 
        "capital": "minor", 
        "lat": "54.092291", 
        "lng": "18.79467", 
        "population": ""
    }, 
    {
        "city": "Radzy\u0144 Podlaski", 
        "admin": "Lubelskie", 
        "country": "Poland", 
        "population_proper": "", 
        "iso2": "PL", 
        "capital": "minor", 
        "lat": "51.783333", 
        "lng": "22.616667", 
        "population": ""
    }, 
    {
        "city": "\u015awidnik", 
        "admin": "Lubelskie", 
        "country": "Poland", 
        "population_proper": "", 
        "iso2": "PL", 
        "capital": "minor", 
        "lat": "51.22057", 
        "lng": "22.700337", 
        "population": ""
    }, 
    {
        "city": "Bia\u0142ogard", 
        "admin": "Zachodniopomorskie", 
        "country": "Poland", 
        "population_proper": "", 
        "iso2": "PL", 
        "capital": "minor", 
        "lat": "54.00937", 
        "lng": "15.986562", 
        "population": ""
    }, 
    {
        "city": "Ko\u0144skie", 
        "admin": "\u015awi\u0119tokrzyskie", 
        "country": "Poland", 
        "population_proper": "", 
        "iso2": "PL", 
        "capital": "minor", 
        "lat": "51.191432", 
        "lng": "20.408217", 
        "population": ""
    }, 
    {
        "city": "Zgierz", 
        "admin": "\u0141\u00f3dzkie", 
        "country": "Poland", 
        "population_proper": "", 
        "iso2": "PL", 
        "capital": "minor", 
        "lat": "51.84469", 
        "lng": "19.408752", 
        "population": ""
    }, 
    {
        "city": "Krapkowice", 
        "admin": "Opolskie", 
        "country": "Poland", 
        "population_proper": "", 
        "iso2": "PL", 
        "capital": "minor", 
        "lat": "50.474689", 
        "lng": "17.965447", 
        "population": ""
    }, 
    {
        "city": "Legnica", 
        "admin": "Dolno\u015bl\u0105skie", 
        "country": "Poland", 
        "population_proper": "", 
        "iso2": "PL", 
        "capital": "minor", 
        "lat": "51.210062", 
        "lng": "16.161898", 
        "population": ""
    }, 
    {
        "city": "Legionowo", 
        "admin": "Mazowieckie", 
        "country": "Poland", 
        "population_proper": "", 
        "iso2": "PL", 
        "capital": "minor", 
        "lat": "52.401488", 
        "lng": "20.926636", 
        "population": ""
    }, 
    {
        "city": "Bartoszyce", 
        "admin": "Warmi\u0144sko-Mazurskie", 
        "country": "Poland", 
        "population_proper": "", 
        "iso2": "PL", 
        "capital": "minor", 
        "lat": "54.250693", 
        "lng": "20.814911", 
        "population": ""
    }, 
    {
        "city": "Chrzan\u00f3w", 
        "admin": "Ma\u0142opolskie", 
        "country": "Poland", 
        "population_proper": "", 
        "iso2": "PL", 
        "capital": "minor", 
        "lat": "50.139468", 
        "lng": "19.40626", 
        "population": ""
    }, 
    {
        "city": "S\u0142ubice", 
        "admin": "Lubuskie", 
        "country": "Poland", 
        "population_proper": "", 
        "iso2": "PL", 
        "capital": "minor", 
        "lat": "52.355255", 
        "lng": "14.564826", 
        "population": ""
    }, 
    {
        "city": "Strzelce Kraje\u0144skie", 
        "admin": "Lubuskie", 
        "country": "Poland", 
        "population_proper": "", 
        "iso2": "PL", 
        "capital": "minor", 
        "lat": "52.876306", 
        "lng": "15.5326", 
        "population": ""
    }, 
    {
        "city": "Nidzica", 
        "admin": "Warmi\u0144sko-Mazurskie", 
        "country": "Poland", 
        "population_proper": "", 
        "iso2": "PL", 
        "capital": "minor", 
        "lat": "53.360936", 
        "lng": "20.426476", 
        "population": ""
    }, 
    {
        "city": "G\u0142ubczyce", 
        "admin": "Opolskie", 
        "country": "Poland", 
        "population_proper": "", 
        "iso2": "PL", 
        "capital": "minor", 
        "lat": "50.202034", 
        "lng": "17.829379", 
        "population": ""
    }, 
    {
        "city": "W\u0142oszczowa", 
        "admin": "\u015awi\u0119tokrzyskie", 
        "country": "Poland", 
        "population_proper": "", 
        "iso2": "PL", 
        "capital": "minor", 
        "lat": "50.852583", 
        "lng": "19.966843", 
        "population": ""
    }, 
    {
        "city": "Skar\u017cysko-Kamienna", 
        "admin": "\u015awi\u0119tokrzyskie", 
        "country": "Poland", 
        "population_proper": "", 
        "iso2": "PL", 
        "capital": "minor", 
        "lat": "51.117238", 
        "lng": "20.895717", 
        "population": ""
    }, 
    {
        "city": "Kalisz", 
        "admin": "Wielkopolskie", 
        "country": "Poland", 
        "population_proper": "", 
        "iso2": "PL", 
        "capital": "minor", 
        "lat": "51.76109", 
        "lng": "18.091018", 
        "population": ""
    }, 
    {
        "city": "Opole Lubelskie", 
        "admin": "Lubelskie", 
        "country": "Poland", 
        "population_proper": "", 
        "iso2": "PL", 
        "capital": "minor", 
        "lat": "51.148001", 
        "lng": "21.969903", 
        "population": ""
    }, 
    {
        "city": "Mi\u0119dzych\u00f3d", 
        "admin": "Wielkopolskie", 
        "country": "Poland", 
        "population_proper": "", 
        "iso2": "PL", 
        "capital": "minor", 
        "lat": "52.599017", 
        "lng": "15.890664", 
        "population": ""
    }, 
    {
        "city": "Olesno", 
        "admin": "Opolskie", 
        "country": "Poland", 
        "population_proper": "", 
        "iso2": "PL", 
        "capital": "minor", 
        "lat": "50.876976", 
        "lng": "18.420937", 
        "population": ""
    }, 
    {
        "city": "Dzia\u0142dowo", 
        "admin": "Warmi\u0144sko-Mazurskie", 
        "country": "Poland", 
        "population_proper": "", 
        "iso2": "PL", 
        "capital": "minor", 
        "lat": "53.239581", 
        "lng": "20.170041", 
        "population": ""
    }, 
    {
        "city": "Mielec", 
        "admin": "Podkarpackie", 
        "country": "Poland", 
        "population_proper": "", 
        "iso2": "PL", 
        "capital": "minor", 
        "lat": "50.286188", 
        "lng": "21.432657", 
        "population": ""
    }, 
    {
        "city": "Ostr\u00f3w Mazowiecka", 
        "admin": "Mazowieckie", 
        "country": "Poland", 
        "population_proper": "", 
        "iso2": "PL", 
        "capital": "minor", 
        "lat": "52.803342", 
        "lng": "21.895544", 
        "population": ""
    }, 
    {
        "city": "Pu\u0142tusk", 
        "admin": "Mazowieckie", 
        "country": "Poland", 
        "population_proper": "", 
        "iso2": "PL", 
        "capital": "minor", 
        "lat": "52.704141", 
        "lng": "21.083007", 
        "population": ""
    }, 
    {
        "city": "Kra\u015bnik", 
        "admin": "Lubelskie", 
        "country": "Poland", 
        "population_proper": "", 
        "iso2": "PL", 
        "capital": "minor", 
        "lat": "50.922758", 
        "lng": "22.22648", 
        "population": ""
    }, 
    {
        "city": "Miech\u00f3w", 
        "admin": "Ma\u0142opolskie", 
        "country": "Poland", 
        "population_proper": "", 
        "iso2": "PL", 
        "capital": "minor", 
        "lat": "50.356529", 
        "lng": "20.030126", 
        "population": ""
    }, 
    {
        "city": "Konin", 
        "admin": "Wielkopolskie", 
        "country": "Poland", 
        "population_proper": "", 
        "iso2": "PL", 
        "capital": "minor", 
        "lat": "52.208577", 
        "lng": "18.254103", 
        "population": ""
    }, 
    {
        "city": "G\u00f3ra", 
        "admin": "Dolno\u015bl\u0105skie", 
        "country": "Poland", 
        "population_proper": "", 
        "iso2": "PL", 
        "capital": "minor", 
        "lat": "51.668392", 
        "lng": "16.538039", 
        "population": ""
    }, 
    {
        "city": "\u017bory", 
        "admin": "\u015al\u0105skie", 
        "country": "Poland", 
        "population_proper": "", 
        "iso2": "PL", 
        "capital": "minor", 
        "lat": "50.044976", 
        "lng": "18.694315", 
        "population": ""
    }, 
    {
        "city": "Ciechan\u00f3w", 
        "admin": "Mazowieckie", 
        "country": "Poland", 
        "population_proper": "", 
        "iso2": "PL", 
        "capital": "minor", 
        "lat": "52.878352", 
        "lng": "20.618754", 
        "population": ""
    }, 
    {
        "city": "My\u015blenice", 
        "admin": "Ma\u0142opolskie", 
        "country": "Poland", 
        "population_proper": "", 
        "iso2": "PL", 
        "capital": "minor", 
        "lat": "49.831956", 
        "lng": "19.9441", 
        "population": ""
    }, 
    {
        "city": "My\u015blib\u00f3rz", 
        "admin": "Zachodniopomorskie", 
        "country": "Poland", 
        "population_proper": "", 
        "iso2": "PL", 
        "capital": "minor", 
        "lat": "52.92174", 
        "lng": "14.863315", 
        "population": ""
    }, 
    {
        "city": "Lubin", 
        "admin": "Dolno\u015bl\u0105skie", 
        "country": "Poland", 
        "population_proper": "", 
        "iso2": "PL", 
        "capital": "minor", 
        "lat": "51.400825", 
        "lng": "16.203381", 
        "population": ""
    }, 
    {
        "city": "Tarnobrzeg", 
        "admin": "Podkarpackie", 
        "country": "Poland", 
        "population_proper": "", 
        "iso2": "PL", 
        "capital": "minor", 
        "lat": "50.572007", 
        "lng": "21.684761", 
        "population": ""
    }, 
    {
        "city": "Piotrk\u00f3w Trybunalski", 
        "admin": "\u0141\u00f3dzkie", 
        "country": "Poland", 
        "population_proper": "", 
        "iso2": "PL", 
        "capital": "minor", 
        "lat": "51.410445", 
        "lng": "19.694952", 
        "population": ""
    }, 
    {
        "city": "Gryfice", 
        "admin": "Zachodniopomorskie", 
        "country": "Poland", 
        "population_proper": "", 
        "iso2": "PL", 
        "capital": "minor", 
        "lat": "53.91624", 
        "lng": "15.198219", 
        "population": ""
    }, 
    {
        "city": "Gryfino", 
        "admin": "Zachodniopomorskie", 
        "country": "Poland", 
        "population_proper": "", 
        "iso2": "PL", 
        "capital": "minor", 
        "lat": "53.253865", 
        "lng": "14.490097", 
        "population": ""
    }, 
    {
        "city": "Dzier\u017coni\u00f3w", 
        "admin": "Dolno\u015bl\u0105skie", 
        "country": "Poland", 
        "population_proper": "", 
        "iso2": "PL", 
        "capital": "minor", 
        "lat": "50.732045", 
        "lng": "16.648718", 
        "population": ""
    }, 
    {
        "city": "Grudzi\u0105dz", 
        "admin": "Kujawsko-Pomorskie", 
        "country": "Poland", 
        "population_proper": "", 
        "iso2": "PL", 
        "capital": "minor", 
        "lat": "53.483333", 
        "lng": "18.774123", 
        "population": ""
    }, 
    {
        "city": "P\u0142ock", 
        "admin": "Mazowieckie", 
        "country": "Poland", 
        "population_proper": "", 
        "iso2": "PL", 
        "capital": "minor", 
        "lat": "52.55", 
        "lng": "19.7", 
        "population": ""
    }, 
    {
        "city": "Przasnysz", 
        "admin": "Mazowieckie", 
        "country": "Poland", 
        "population_proper": "", 
        "iso2": "PL", 
        "capital": "minor", 
        "lat": "53.020284", 
        "lng": "20.882391", 
        "population": ""
    }, 
    {
        "city": "Goleni\u00f3w", 
        "admin": "Zachodniopomorskie", 
        "country": "Poland", 
        "population_proper": "", 
        "iso2": "PL", 
        "capital": "minor", 
        "lat": "53.563753", 
        "lng": "14.830032", 
        "population": ""
    }, 
    {
        "city": "Z\u0105bkowice \u015al\u0105skie", 
        "admin": "Dolno\u015bl\u0105skie", 
        "country": "Poland", 
        "population_proper": "", 
        "iso2": "PL", 
        "capital": "minor", 
        "lat": "50.591954", 
        "lng": "16.818407", 
        "population": ""
    }, 
    {
        "city": "W\u0142odawa", 
        "admin": "Lubelskie", 
        "country": "Poland", 
        "population_proper": "", 
        "iso2": "PL", 
        "capital": "minor", 
        "lat": "51.55", 
        "lng": "23.55", 
        "population": ""
    }, 
    {
        "city": "Opoczno", 
        "admin": "\u0141\u00f3dzkie", 
        "country": "Poland", 
        "population_proper": "", 
        "iso2": "PL", 
        "capital": "minor", 
        "lat": "51.375821", 
        "lng": "20.286737", 
        "population": ""
    }, 
    {
        "city": "Rybnik", 
        "admin": "\u015al\u0105skie", 
        "country": "Poland", 
        "population_proper": "", 
        "iso2": "PL", 
        "capital": "minor", 
        "lat": "50.092076", 
        "lng": "18.547479", 
        "population": ""
    }, 
    {
        "city": "Jas\u0142o", 
        "admin": "Podkarpackie", 
        "country": "Poland", 
        "population_proper": "", 
        "iso2": "PL", 
        "capital": "minor", 
        "lat": "49.743718", 
        "lng": "21.47095", 
        "population": ""
    }, 
    {
        "city": "Trzebnica", 
        "admin": "Dolno\u015bl\u0105skie", 
        "country": "Poland", 
        "population_proper": "", 
        "iso2": "PL", 
        "capital": "minor", 
        "lat": "51.309886", 
        "lng": "17.062849", 
        "population": ""
    }, 
    {
        "city": "Mak\u00f3w Mazowiecki", 
        "admin": "Mazowieckie", 
        "country": "Poland", 
        "population_proper": "", 
        "iso2": "PL", 
        "capital": "minor", 
        "lat": "52.866667", 
        "lng": "21.1", 
        "population": ""
    }, 
    {
        "city": "Proszowice", 
        "admin": "Ma\u0142opolskie", 
        "country": "Poland", 
        "population_proper": "", 
        "iso2": "PL", 
        "capital": "minor", 
        "lat": "50.192241", 
        "lng": "20.291", 
        "population": ""
    }, 
    {
        "city": "Chojnice", 
        "admin": "Pomorskie", 
        "country": "Poland", 
        "population_proper": "", 
        "iso2": "PL", 
        "capital": "minor", 
        "lat": "53.695062", 
        "lng": "17.566093", 
        "population": ""
    }, 
    {
        "city": "Przemy\u015bl", 
        "admin": "Podkarpackie", 
        "country": "Poland", 
        "population_proper": "", 
        "iso2": "PL", 
        "capital": "minor", 
        "lat": "49.782476", 
        "lng": "22.79228", 
        "population": ""
    }, 
    {
        "city": "Sieradz", 
        "admin": "\u0141\u00f3dzkie", 
        "country": "Poland", 
        "population_proper": "", 
        "iso2": "PL", 
        "capital": "minor", 
        "lat": "51.595347", 
        "lng": "18.725345", 
        "population": ""
    }, 
    {
        "city": "\u0141obez", 
        "admin": "Zachodniopomorskie", 
        "country": "Poland", 
        "population_proper": "", 
        "iso2": "PL", 
        "capital": "minor", 
        "lat": "53.638794", 
        "lng": "15.62231", 
        "population": ""
    }, 
    {
        "city": "Mr\u0105gowo", 
        "admin": "Warmi\u0144sko-Mazurskie", 
        "country": "Poland", 
        "population_proper": "", 
        "iso2": "PL", 
        "capital": "minor", 
        "lat": "53.866667", 
        "lng": "21.3", 
        "population": ""
    }, 
    {
        "city": "Lipsko", 
        "admin": "Mazowieckie", 
        "country": "Poland", 
        "population_proper": "", 
        "iso2": "PL", 
        "capital": "minor", 
        "lat": "51.158672", 
        "lng": "21.648668", 
        "population": ""
    }, 
    {
        "city": "\u015awinouj\u015bcie", 
        "admin": "Zachodniopomorskie", 
        "country": "Poland", 
        "population_proper": "", 
        "iso2": "PL", 
        "capital": "minor", 
        "lat": "53.909148", 
        "lng": "14.240035", 
        "population": ""
    }, 
    {
        "city": "Nysa", 
        "admin": "Opolskie", 
        "country": "Poland", 
        "population_proper": "", 
        "iso2": "PL", 
        "capital": "minor", 
        "lat": "50.47226", 
        "lng": "17.33618", 
        "population": ""
    }, 
    {
        "city": "Wrze\u015bnia", 
        "admin": "Wielkopolskie", 
        "country": "Poland", 
        "population_proper": "", 
        "iso2": "PL", 
        "capital": "minor", 
        "lat": "52.323234", 
        "lng": "17.569913", 
        "population": ""
    }, 
    {
        "city": "Sopot", 
        "admin": "Pomorskie", 
        "country": "Poland", 
        "population_proper": "", 
        "iso2": "PL", 
        "capital": "minor", 
        "lat": "54.434676", 
        "lng": "18.57076", 
        "population": ""
    }, 
    {
        "city": "Kwidzyn", 
        "admin": "Pomorskie", 
        "country": "Poland", 
        "population_proper": "", 
        "iso2": "PL", 
        "capital": "minor", 
        "lat": "53.724949", 
        "lng": "18.931137", 
        "population": ""
    }, 
    {
        "city": "Ostro\u0142\u0119ka", 
        "admin": "Mazowieckie", 
        "country": "Poland", 
        "population_proper": "", 
        "iso2": "PL", 
        "capital": "minor", 
        "lat": "53.086206", 
        "lng": "21.575663", 
        "population": ""
    }, 
    {
        "city": "Brzeg", 
        "admin": "Opolskie", 
        "country": "Poland", 
        "population_proper": "", 
        "iso2": "PL", 
        "capital": "minor", 
        "lat": "50.857495", 
        "lng": "17.46976", 
        "population": ""
    }, 
    {
        "city": "\u015aroda Wielkopolska", 
        "admin": "Wielkopolskie", 
        "country": "Poland", 
        "population_proper": "", 
        "iso2": "PL", 
        "capital": "minor", 
        "lat": "52.227622", 
        "lng": "17.279907", 
        "population": ""
    }, 
    {
        "city": "\u015aroda \u015al\u0105ska", 
        "admin": "Dolno\u015bl\u0105skie", 
        "country": "Poland", 
        "population_proper": "", 
        "iso2": "PL", 
        "capital": "minor", 
        "lat": "51.164565", 
        "lng": "16.593952", 
        "population": ""
    }, 
    {
        "city": "L\u0119bork", 
        "admin": "Pomorskie", 
        "country": "Poland", 
        "population_proper": "", 
        "iso2": "PL", 
        "capital": "minor", 
        "lat": "54.539214", 
        "lng": "17.750121", 
        "population": ""
    }, 
    {
        "city": "Gi\u017cycko", 
        "admin": "Warmi\u0144sko-Mazurskie", 
        "country": "Poland", 
        "population_proper": "", 
        "iso2": "PL", 
        "capital": "minor", 
        "lat": "54.03811", 
        "lng": "21.764411", 
        "population": ""
    }, 
    {
        "city": "Soko\u0142\u00f3w Podlaski", 
        "admin": "Mazowieckie", 
        "country": "Poland", 
        "population_proper": "", 
        "iso2": "PL", 
        "capital": "minor", 
        "lat": "52.407477", 
        "lng": "22.251923", 
        "population": ""
    }, 
    {
        "city": "Zakopane", 
        "admin": "Ma\u0142opolskie", 
        "country": "Poland", 
        "population_proper": "", 
        "iso2": "PL", 
        "capital": "minor", 
        "lat": "49.296247", 
        "lng": "19.956785", 
        "population": ""
    }, 
    {
        "city": "\u017buromin", 
        "admin": "Mazowieckie", 
        "country": "Poland", 
        "population_proper": "", 
        "iso2": "PL", 
        "capital": "minor", 
        "lat": "53.067232", 
        "lng": "19.911376", 
        "population": ""
    }, 
    {
        "city": "\u0141\u0119czyca", 
        "admin": "\u0141\u00f3dzkie", 
        "country": "Poland", 
        "population_proper": "", 
        "iso2": "PL", 
        "capital": "minor", 
        "lat": "52.059352", 
        "lng": "19.20184", 
        "population": ""
    }, 
    {
        "city": "Myszk\u00f3w", 
        "admin": "\u015al\u0105skie", 
        "country": "Poland", 
        "population_proper": "", 
        "iso2": "PL", 
        "capital": "minor", 
        "lat": "50.575202", 
        "lng": "19.324607", 
        "population": ""
    }, 
    {
        "city": "Kluczbork", 
        "admin": "Opolskie", 
        "country": "Poland", 
        "population_proper": "", 
        "iso2": "PL", 
        "capital": "minor", 
        "lat": "50.97429", 
        "lng": "18.213765", 
        "population": ""
    }, 
    {
        "city": "Kolbuszowa", 
        "admin": "Podkarpackie", 
        "country": "Poland", 
        "population_proper": "", 
        "iso2": "PL", 
        "capital": "minor", 
        "lat": "50.241504", 
        "lng": "21.769935", 
        "population": ""
    }, 
    {
        "city": "Starogard Gda\u0144ski", 
        "admin": "Pomorskie", 
        "country": "Poland", 
        "population_proper": "", 
        "iso2": "PL", 
        "capital": "minor", 
        "lat": "53.968898", 
        "lng": "18.535355", 
        "population": ""
    }, 
    {
        "city": "Hajn\u00f3wka", 
        "admin": "Podlaskie", 
        "country": "Poland", 
        "population_proper": "", 
        "iso2": "PL", 
        "capital": "minor", 
        "lat": "52.743281", 
        "lng": "23.581223", 
        "population": ""
    }, 
    {
        "city": "Byt\u00f3w", 
        "admin": "Pomorskie", 
        "country": "Poland", 
        "population_proper": "", 
        "iso2": "PL", 
        "capital": "minor", 
        "lat": "54.176362", 
        "lng": "17.487638", 
        "population": ""
    }, 
    {
        "city": "Otwock", 
        "admin": "Mazowieckie", 
        "country": "Poland", 
        "population_proper": "", 
        "iso2": "PL", 
        "capital": "minor", 
        "lat": "52.118856", 
        "lng": "21.308008", 
        "population": ""
    }, 
    {
        "city": "D\u0119bica", 
        "admin": "Podkarpackie", 
        "country": "Poland", 
        "population_proper": "", 
        "iso2": "PL", 
        "capital": "minor", 
        "lat": "50.052379", 
        "lng": "21.414763", 
        "population": ""
    }, 
    {
        "city": "W\u0142oc\u0142awek", 
        "admin": "Kujawsko-Pomorskie", 
        "country": "Poland", 
        "population_proper": "", 
        "iso2": "PL", 
        "capital": "minor", 
        "lat": "52.651435", 
        "lng": "19.072755", 
        "population": ""
    }, 
    {
        "city": "Malbork", 
        "admin": "Pomorskie", 
        "country": "Poland", 
        "population_proper": "", 
        "iso2": "PL", 
        "capital": "minor", 
        "lat": "54.03596", 
        "lng": "19.03452", 
        "population": ""
    }, 
    {
        "city": "Przeworsk", 
        "admin": "Podkarpackie", 
        "country": "Poland", 
        "population_proper": "", 
        "iso2": "PL", 
        "capital": "minor", 
        "lat": "50.059053", 
        "lng": "22.49486", 
        "population": ""
    }, 
    {
        "city": "Wo\u0142\u00f3w", 
        "admin": "Dolno\u015bl\u0105skie", 
        "country": "Poland", 
        "population_proper": "", 
        "iso2": "PL", 
        "capital": "minor", 
        "lat": "51.339044", 
        "lng": "16.646788", 
        "population": ""
    }, 
    {
        "city": "Ko\u015bcierzyna", 
        "admin": "Pomorskie", 
        "country": "Poland", 
        "population_proper": "", 
        "iso2": "PL", 
        "capital": "minor", 
        "lat": "54.124787", 
        "lng": "17.972062", 
        "population": ""
    }, 
    {
        "city": "Jelenia G\u00f3ra", 
        "admin": "Dolno\u015bl\u0105skie", 
        "country": "Poland", 
        "population_proper": "", 
        "iso2": "PL", 
        "capital": "minor", 
        "lat": "50.89828", 
        "lng": "15.729929", 
        "population": ""
    }, 
    {
        "city": "Ropczyce", 
        "admin": "Podkarpackie", 
        "country": "Poland", 
        "population_proper": "", 
        "iso2": "PL", 
        "capital": "minor", 
        "lat": "50.05257", 
        "lng": "21.609053", 
        "population": ""
    }, 
    {
        "city": "Wschowa", 
        "admin": "Lubuskie", 
        "country": "Poland", 
        "population_proper": "", 
        "iso2": "PL", 
        "capital": "minor", 
        "lat": "51.805426", 
        "lng": "16.317381", 
        "population": ""
    }, 
    {
        "city": "Mi\u0119dzyrzecz", 
        "admin": "Lubuskie", 
        "country": "Poland", 
        "population_proper": "", 
        "iso2": "PL", 
        "capital": "minor", 
        "lat": "52.447891", 
        "lng": "15.581652", 
        "population": ""
    }, 
    {
        "city": "Kazimierza Wielka", 
        "admin": "\u015awi\u0119tokrzyskie", 
        "country": "Poland", 
        "population_proper": "", 
        "iso2": "PL", 
        "capital": "minor", 
        "lat": "50.265426", 
        "lng": "20.493057", 
        "population": ""
    }, 
    {
        "city": "Krotoszyn", 
        "admin": "Wielkopolskie", 
        "country": "Poland", 
        "population_proper": "", 
        "iso2": "PL", 
        "capital": "minor", 
        "lat": "51.698677", 
        "lng": "17.437383", 
        "population": ""
    }, 
    {
        "city": "Cz\u0119stochowa", 
        "admin": "\u015al\u0105skie", 
        "country": "Poland", 
        "population_proper": "", 
        "iso2": "PL", 
        "capital": "minor", 
        "lat": "50.796455", 
        "lng": "19.124088", 
        "population": ""
    }, 
    {
        "city": "Gostynin", 
        "admin": "Mazowieckie", 
        "country": "Poland", 
        "population_proper": "", 
        "iso2": "PL", 
        "capital": "minor", 
        "lat": "52.429429", 
        "lng": "19.46628", 
        "population": ""
    }, 
    {
        "city": "Rawa Mazowiecka", 
        "admin": "\u0141\u00f3dzkie", 
        "country": "Poland", 
        "population_proper": "", 
        "iso2": "PL", 
        "capital": "minor", 
        "lat": "51.764368", 
        "lng": "20.254933", 
        "population": ""
    }, 
    {
        "city": "Ostr\u00f3w Wielkopolski", 
        "admin": "Wielkopolskie", 
        "country": "Poland", 
        "population_proper": "", 
        "iso2": "PL", 
        "capital": "minor", 
        "lat": "51.649762", 
        "lng": "17.808934", 
        "population": ""
    }, 
    {
        "city": "Gr\u00f3jec", 
        "admin": "Mazowieckie", 
        "country": "Poland", 
        "population_proper": "", 
        "iso2": "PL", 
        "capital": "minor", 
        "lat": "51.862518", 
        "lng": "20.867569", 
        "population": ""
    }, 
    {
        "city": "\u0141owicz", 
        "admin": "\u0141\u00f3dzkie", 
        "country": "Poland", 
        "population_proper": "", 
        "iso2": "PL", 
        "capital": "minor", 
        "lat": "52.113739", 
        "lng": "19.948742", 
        "population": ""
    }, 
    {
        "city": "\u015awidwin", 
        "admin": "Zachodniopomorskie", 
        "country": "Poland", 
        "population_proper": "", 
        "iso2": "PL", 
        "capital": "minor", 
        "lat": "53.776279", 
        "lng": "15.775524", 
        "population": ""
    }, 
    {
        "city": "Bieru\u0144", 
        "admin": "\u015al\u0105skie", 
        "country": "Poland", 
        "population_proper": "", 
        "iso2": "PL", 
        "capital": "minor", 
        "lat": "50.091064", 
        "lng": "19.090982", 
        "population": ""
    }, 
    {
        "city": "Siedlce", 
        "admin": "Mazowieckie", 
        "country": "Poland", 
        "population_proper": "", 
        "iso2": "PL", 
        "capital": "minor", 
        "lat": "52.168215", 
        "lng": "22.277296", 
        "population": ""
    }, 
    {
        "city": "\u0141om\u017ca", 
        "admin": "Podlaskie", 
        "country": "Poland", 
        "population_proper": "", 
        "iso2": "PL", 
        "capital": "minor", 
        "lat": "53.173552", 
        "lng": "22.06538", 
        "population": ""
    }, 
    {
        "city": "Busko-Zdr\u00f3j", 
        "admin": "\u015awi\u0119tokrzyskie", 
        "country": "Poland", 
        "population_proper": "", 
        "iso2": "PL", 
        "capital": "minor", 
        "lat": "50.466667", 
        "lng": "20.716667", 
        "population": ""
    }, 
    {
        "city": "Jastrz\u0119bie-Zdr\u00f3j", 
        "admin": "\u015al\u0105skie", 
        "country": "Poland", 
        "population_proper": "", 
        "iso2": "PL", 
        "capital": "minor", 
        "lat": "49.933639", 
        "lng": "18.601372", 
        "population": ""
    }, 
    {
        "city": "Golub-Dobrzy\u0144", 
        "admin": "Kujawsko-Pomorskie", 
        "country": "Poland", 
        "population_proper": "", 
        "iso2": "PL", 
        "capital": "minor", 
        "lat": "53.109425", 
        "lng": "19.054212", 
        "population": ""
    }, 
    {
        "city": "Zambr\u00f3w", 
        "admin": "Podlaskie", 
        "country": "Poland", 
        "population_proper": "", 
        "iso2": "PL", 
        "capital": "minor", 
        "lat": "52.985607", 
        "lng": "22.242249", 
        "population": ""
    }, 
    {
        "city": "Brzesko", 
        "admin": "Ma\u0142opolskie", 
        "country": "Poland", 
        "population_proper": "", 
        "iso2": "PL", 
        "capital": "minor", 
        "lat": "49.970044", 
        "lng": "20.607661", 
        "population": ""
    }, 
    {
        "city": "W\u0105growiec", 
        "admin": "Wielkopolskie", 
        "country": "Poland", 
        "population_proper": "", 
        "iso2": "PL", 
        "capital": "minor", 
        "lat": "52.811659", 
        "lng": "17.207376", 
        "population": ""
    }, 
    {
        "city": "Tomasz\u00f3w Lubelski", 
        "admin": "Lubelskie", 
        "country": "Poland", 
        "population_proper": "", 
        "iso2": "PL", 
        "capital": "minor", 
        "lat": "50.453239", 
        "lng": "23.414238", 
        "population": ""
    }, 
    {
        "city": "Tomasz\u00f3w Mazowiecki", 
        "admin": "\u0141\u00f3dzkie", 
        "country": "Poland", 
        "population_proper": "", 
        "iso2": "PL", 
        "capital": "minor", 
        "lat": "51.538614", 
        "lng": "20.017606", 
        "population": ""
    }, 
    {
        "city": "Suwa\u0142ki", 
        "admin": "Podlaskie", 
        "country": "Poland", 
        "population_proper": "", 
        "iso2": "PL", 
        "capital": "minor", 
        "lat": "54.099444", 
        "lng": "22.933056", 
        "population": ""
    }, 
    {
        "city": "Rawicz", 
        "admin": "Wielkopolskie", 
        "country": "Poland", 
        "population_proper": "", 
        "iso2": "PL", 
        "capital": "minor", 
        "lat": "51.611313", 
        "lng": "16.861194", 
        "population": ""
    }, 
    {
        "city": "Chorz\u00f3w", 
        "admin": "\u015al\u0105skie", 
        "country": "Poland", 
        "population_proper": "", 
        "iso2": "PL", 
        "capital": "minor", 
        "lat": "50.305817", 
        "lng": "18.974203", 
        "population": ""
    }, 
    {
        "city": "Wolsztyn", 
        "admin": "Wielkopolskie", 
        "country": "Poland", 
        "population_proper": "", 
        "iso2": "PL", 
        "capital": "minor", 
        "lat": "52.112706", 
        "lng": "16.12361", 
        "population": ""
    }, 
    {
        "city": "Pruszcz Gda\u0144ski", 
        "admin": "Pomorskie", 
        "country": "Poland", 
        "population_proper": "", 
        "iso2": "PL", 
        "capital": "minor", 
        "lat": "54.26121", 
        "lng": "18.648054", 
        "population": ""
    }, 
    {
        "city": "Szczecinek", 
        "admin": "Zachodniopomorskie", 
        "country": "Poland", 
        "population_proper": "", 
        "iso2": "PL", 
        "capital": "minor", 
        "lat": "53.707908", 
        "lng": "16.699373", 
        "population": ""
    }, 
    {
        "city": "Grajewo", 
        "admin": "Podlaskie", 
        "country": "Poland", 
        "population_proper": "", 
        "iso2": "PL", 
        "capital": "minor", 
        "lat": "53.648062", 
        "lng": "22.459669", 
        "population": ""
    }, 
    {
        "city": "Zdu\u0144ska Wola", 
        "admin": "\u0141\u00f3dzkie", 
        "country": "Poland", 
        "population_proper": "", 
        "iso2": "PL", 
        "capital": "minor", 
        "lat": "51.59741", 
        "lng": "18.931347", 
        "population": ""
    }, 
    {
        "city": "Wa\u0142brzych", 
        "admin": "Dolno\u015bl\u0105skie", 
        "country": "Poland", 
        "population_proper": "", 
        "iso2": "PL", 
        "capital": "minor", 
        "lat": "50.771407", 
        "lng": "16.28432", 
        "population": ""
    }, 
    {
        "city": "P\u0142o\u0144sk", 
        "admin": "Mazowieckie", 
        "country": "Poland", 
        "population_proper": "", 
        "iso2": "PL", 
        "capital": "minor", 
        "lat": "52.622238", 
        "lng": "20.37532", 
        "population": ""
    }, 
    {
        "city": "Bielsk Podlaski", 
        "admin": "Podlaskie", 
        "country": "Poland", 
        "population_proper": "", 
        "iso2": "PL", 
        "capital": "minor", 
        "lat": "52.770017", 
        "lng": "23.190889", 
        "population": ""
    }, 
    {
        "city": "Zawiercie", 
        "admin": "\u015al\u0105skie", 
        "country": "Poland", 
        "population_proper": "", 
        "iso2": "PL", 
        "capital": "minor", 
        "lat": "50.488242", 
        "lng": "19.431832", 
        "population": ""
    }, 
    {
        "city": "Sul\u0119cin", 
        "admin": "Lubuskie", 
        "country": "Poland", 
        "population_proper": "", 
        "iso2": "PL", 
        "capital": "minor", 
        "lat": "52.443562", 
        "lng": "15.118347", 
        "population": ""
    }, 
    {
        "city": "August\u00f3w", 
        "admin": "Podlaskie", 
        "country": "Poland", 
        "population_proper": "", 
        "iso2": "PL", 
        "capital": "minor", 
        "lat": "53.844711", 
        "lng": "22.980133", 
        "population": ""
    }, 
    {
        "city": "Wo\u0142omin", 
        "admin": "Mazowieckie", 
        "country": "Poland", 
        "population_proper": "", 
        "iso2": "PL", 
        "capital": "minor", 
        "lat": "52.346753", 
        "lng": "21.239244", 
        "population": ""
    }, 
    {
        "city": "Radziej\u00f3w", 
        "admin": "Kujawsko-Pomorskie", 
        "country": "Poland", 
        "population_proper": "", 
        "iso2": "PL", 
        "capital": "minor", 
        "lat": "52.622649", 
        "lng": "18.528425", 
        "population": ""
    }, 
    {
        "city": "Jawor", 
        "admin": "Dolno\u015bl\u0105skie", 
        "country": "Poland", 
        "population_proper": "", 
        "iso2": "PL", 
        "capital": "minor", 
        "lat": "51.051317", 
        "lng": "16.193471", 
        "population": ""
    }, 
    {
        "city": "Bi\u0142goraj", 
        "admin": "Lubelskie", 
        "country": "Poland", 
        "population_proper": "", 
        "iso2": "PL", 
        "capital": "minor", 
        "lat": "50.53583", 
        "lng": "22.727577", 
        "population": ""
    }, 
    {
        "city": "Piaseczno", 
        "admin": "Mazowieckie", 
        "country": "Poland", 
        "population_proper": "", 
        "iso2": "PL", 
        "capital": "minor", 
        "lat": "52.070345", 
        "lng": "21.027177", 
        "population": ""
    }, 
    {
        "city": "Gorz\u00f3w Wielkopolski", 
        "admin": "Lubuskie", 
        "country": "Poland", 
        "population_proper": "", 
        "iso2": "PL", 
        "capital": "admin", 
        "lat": "52.73679", 
        "lng": "15.228775", 
        "population": ""
    }, 
    {
        "city": "Puck", 
        "admin": "Pomorskie", 
        "country": "Poland", 
        "population_proper": "", 
        "iso2": "PL", 
        "capital": "minor", 
        "lat": "54.718542", 
        "lng": "18.41085", 
        "population": ""
    }, 
    {
        "city": "Miko\u0142\u00f3w", 
        "admin": "\u015al\u0105skie", 
        "country": "Poland", 
        "population_proper": "", 
        "iso2": "PL", 
        "capital": "minor", 
        "lat": "50.17103", 
        "lng": "18.904098", 
        "population": ""
    }, 
    {
        "city": "Sosnowiec", 
        "admin": "\u015al\u0105skie", 
        "country": "Poland", 
        "population_proper": "", 
        "iso2": "PL", 
        "capital": "minor", 
        "lat": "50.272243", 
        "lng": "19.155039", 
        "population": ""
    }, 
    {
        "city": "Tarn\u00f3w", 
        "admin": "Ma\u0142opolskie", 
        "country": "Poland", 
        "population_proper": "", 
        "iso2": "PL", 
        "capital": "minor", 
        "lat": "50.006105", 
        "lng": "20.95527", 
        "population": ""
    }, 
    {
        "city": "Go\u0142dap", 
        "admin": "Warmi\u0144sko-Mazurskie", 
        "country": "Poland", 
        "population_proper": "", 
        "iso2": "PL", 
        "capital": "minor", 
        "lat": "54.309055", 
        "lng": "22.303898", 
        "population": ""
    }, 
    {
        "city": "W\u0119gorzewo", 
        "admin": "Warmi\u0144sko-Mazurskie", 
        "country": "Poland", 
        "population_proper": "", 
        "iso2": "PL", 
        "capital": "minor", 
        "lat": "54.215669", 
        "lng": "21.737202", 
        "population": ""
    }, 
    {
        "city": "Kamienna G\u00f3ra", 
        "admin": "Dolno\u015bl\u0105skie", 
        "country": "Poland", 
        "population_proper": "", 
        "iso2": "PL", 
        "capital": "minor", 
        "lat": "50.783136", 
        "lng": "16.030371", 
        "population": ""
    }, 
    {
        "city": "Wieliczka", 
        "admin": "Ma\u0142opolskie", 
        "country": "Poland", 
        "population_proper": "", 
        "iso2": "PL", 
        "capital": "minor", 
        "lat": "49.984057", 
        "lng": "20.062219", 
        "population": ""
    }, 
    {
        "city": "M\u0142awa", 
        "admin": "Mazowieckie", 
        "country": "Poland", 
        "population_proper": "", 
        "iso2": "PL", 
        "capital": "minor", 
        "lat": "53.116667", 
        "lng": "20.383333", 
        "population": ""
    }, 
    {
        "city": "Namys\u0142\u00f3w", 
        "admin": "Opolskie", 
        "country": "Poland", 
        "population_proper": "", 
        "iso2": "PL", 
        "capital": "minor", 
        "lat": "51.075035", 
        "lng": "17.714347", 
        "population": ""
    }, 
    {
        "city": "Siemianowice \u015al\u0105skie", 
        "admin": "\u015al\u0105skie", 
        "country": "Poland", 
        "population_proper": "", 
        "iso2": "PL", 
        "capital": "minor", 
        "lat": "50.304126", 
        "lng": "19.035834", 
        "population": ""
    }, 
    {
        "city": "Siemiatycze", 
        "admin": "Podlaskie", 
        "country": "Poland", 
        "population_proper": "", 
        "iso2": "PL", 
        "capital": "minor", 
        "lat": "52.42719", 
        "lng": "22.862311", 
        "population": ""
    }, 
    {
        "city": "Nowa S\u00f3l", 
        "admin": "Lubuskie", 
        "country": "Poland", 
        "population_proper": "", 
        "iso2": "PL", 
        "capital": "minor", 
        "lat": "51.803937", 
        "lng": "15.715998", 
        "population": ""
    }, 
    {
        "city": "Milicz", 
        "admin": "Dolno\u015bl\u0105skie", 
        "country": "Poland", 
        "population_proper": "", 
        "iso2": "PL", 
        "capital": "minor", 
        "lat": "51.526373", 
        "lng": "17.276928", 
        "population": ""
    }, 
    {
        "city": "Piekary \u015al\u0105skie", 
        "admin": "\u015al\u0105skie", 
        "country": "Poland", 
        "population_proper": "", 
        "iso2": "PL", 
        "capital": "minor", 
        "lat": "50.384664", 
        "lng": "18.944183", 
        "population": ""
    }, 
    {
        "city": "J\u0119drzej\u00f3w", 
        "admin": "\u015awi\u0119tokrzyskie", 
        "country": "Poland", 
        "population_proper": "", 
        "iso2": "PL", 
        "capital": "minor", 
        "lat": "50.640023", 
        "lng": "20.305868", 
        "population": ""
    }, 
    {
        "city": "Radom", 
        "admin": "Mazowieckie", 
        "country": "Poland", 
        "population_proper": "", 
        "iso2": "PL", 
        "capital": "minor", 
        "lat": "51.400963", 
        "lng": "21.15809", 
        "population": ""
    }, 
    {
        "city": "K\u0119pno", 
        "admin": "Wielkopolskie", 
        "country": "Poland", 
        "population_proper": "", 
        "iso2": "PL", 
        "capital": "minor", 
        "lat": "51.278425", 
        "lng": "17.985831", 
        "population": ""
    }, 
    {
        "city": "K\u0119dzierzyn-Ko\u017ale", 
        "admin": "Opolskie", 
        "country": "Poland", 
        "population_proper": "", 
        "iso2": "PL", 
        "capital": "minor", 
        "lat": "50.35", 
        "lng": "18.2", 
        "population": ""
    }, 
    {
        "city": "Pi\u0144cz\u00f3w", 
        "admin": "\u015awi\u0119tokrzyskie", 
        "country": "Poland", 
        "population_proper": "", 
        "iso2": "PL", 
        "capital": "minor", 
        "lat": "50.520961", 
        "lng": "20.526694", 
        "population": ""
    }, 
    {
        "city": "Bochnia", 
        "admin": "Ma\u0142opolskie", 
        "country": "Poland", 
        "population_proper": "", 
        "iso2": "PL", 
        "capital": "minor", 
        "lat": "49.97215", 
        "lng": "20.426816", 
        "population": ""
    }, 
    {
        "city": "O\u0142awa", 
        "admin": "Dolno\u015bl\u0105skie", 
        "country": "Poland", 
        "population_proper": "", 
        "iso2": "PL", 
        "capital": "minor", 
        "lat": "50.942078", 
        "lng": "17.299643", 
        "population": ""
    }, 
    {
        "city": "Ostrowiec \u015awi\u0119tokrzyski", 
        "admin": "\u015awi\u0119tokrzyskie", 
        "country": "Poland", 
        "population_proper": "", 
        "iso2": "PL", 
        "capital": "minor", 
        "lat": "50.939932", 
        "lng": "21.387944", 
        "population": ""
    }, 
    {
        "city": "Ko\u015bcian", 
        "admin": "Wielkopolskie", 
        "country": "Poland", 
        "population_proper": "", 
        "iso2": "PL", 
        "capital": "minor", 
        "lat": "52.088293", 
        "lng": "16.648657", 
        "population": ""
    }, 
    {
        "city": "Ko\u0142obrzeg", 
        "admin": "Zachodniopomorskie", 
        "country": "Poland", 
        "population_proper": "", 
        "iso2": "PL", 
        "capital": "minor", 
        "lat": "54.175112", 
        "lng": "15.591352", 
        "population": ""
    }, 
    {
        "city": "Leszno", 
        "admin": "Wielkopolskie", 
        "country": "Poland", 
        "population_proper": "", 
        "iso2": "PL", 
        "capital": "minor", 
        "lat": "51.848268", 
        "lng": "16.57022", 
        "population": ""
    }, 
    {
        "city": "Brzeziny", 
        "admin": "\u0141\u00f3dzkie", 
        "country": "Poland", 
        "population_proper": "", 
        "iso2": "PL", 
        "capital": "minor", 
        "lat": "51.800545", 
        "lng": "19.749864", 
        "population": ""
    }, 
    {
        "city": "Prudnik", 
        "admin": "Opolskie", 
        "country": "Poland", 
        "population_proper": "", 
        "iso2": "PL", 
        "capital": "minor", 
        "lat": "50.323175", 
        "lng": "17.576214", 
        "population": ""
    }, 
    {
        "city": "Chodzie\u017c", 
        "admin": "Wielkopolskie", 
        "country": "Poland", 
        "population_proper": "", 
        "iso2": "PL", 
        "capital": "minor", 
        "lat": "52.993089", 
        "lng": "16.91405", 
        "population": ""
    }, 
    {
        "city": "O\u015bwi\u0119cim", 
        "admin": "Ma\u0142opolskie", 
        "country": "Poland", 
        "population_proper": "", 
        "iso2": "PL", 
        "capital": "minor", 
        "lat": "50.036838", 
        "lng": "19.230829", 
        "population": ""
    }, 
    {
        "city": "\u017bywiec", 
        "admin": "\u015al\u0105skie", 
        "country": "Poland", 
        "population_proper": "", 
        "iso2": "PL", 
        "capital": "minor", 
        "lat": "49.686713", 
        "lng": "19.194226", 
        "population": ""
    }, 
    {
        "city": "Aleksandr\u00f3w Kujawski", 
        "admin": "Kujawsko-Pomorskie", 
        "country": "Poland", 
        "population_proper": "", 
        "iso2": "PL", 
        "capital": "minor", 
        "lat": "52.877639", 
        "lng": "18.703163", 
        "population": ""
    }, 
    {
        "city": "D\u0105browa Tarnowska", 
        "admin": "Ma\u0142opolskie", 
        "country": "Poland", 
        "population_proper": "", 
        "iso2": "PL", 
        "capital": "minor", 
        "lat": "50.174915", 
        "lng": "20.990776", 
        "population": ""
    }, 
    {
        "city": "Mi\u0144sk Mazowiecki", 
        "admin": "Mazowieckie", 
        "country": "Poland", 
        "population_proper": "", 
        "iso2": "PL", 
        "capital": "minor", 
        "lat": "52.181875", 
        "lng": "21.565981", 
        "population": ""
    }, 
    {
        "city": "Pu\u0142awy", 
        "admin": "Lubelskie", 
        "country": "Poland", 
        "population_proper": "", 
        "iso2": "PL", 
        "capital": "minor", 
        "lat": "51.416667", 
        "lng": "21.966667", 
        "population": ""
    }, 
    {
        "city": "Ole\u015bnica", 
        "admin": "Dolno\u015bl\u0105skie", 
        "country": "Poland", 
        "population_proper": "", 
        "iso2": "PL", 
        "capital": "minor", 
        "lat": "51.207733", 
        "lng": "17.386545", 
        "population": ""
    }, 
    {
        "city": "Ostr\u00f3da", 
        "admin": "Warmi\u0144sko-Mazurskie", 
        "country": "Poland", 
        "population_proper": "", 
        "iso2": "PL", 
        "capital": "minor", 
        "lat": "53.699585", 
        "lng": "19.962986", 
        "population": ""
    }, 
    {
        "city": "Podd\u0119bice", 
        "admin": "\u0141\u00f3dzkie", 
        "country": "Poland", 
        "population_proper": "", 
        "iso2": "PL", 
        "capital": "minor", 
        "lat": "51.893139", 
        "lng": "18.956442", 
        "population": ""
    }, 
    {
        "city": "S\u0142awno", 
        "admin": "Zachodniopomorskie", 
        "country": "Poland", 
        "population_proper": "", 
        "iso2": "PL", 
        "capital": "minor", 
        "lat": "54.361546", 
        "lng": "16.67801", 
        "population": ""
    }, 
    {
        "city": "W\u0105brze\u017ano", 
        "admin": "Kujawsko-Pomorskie", 
        "country": "Poland", 
        "population_proper": "", 
        "iso2": "PL", 
        "capital": "minor", 
        "lat": "53.280183", 
        "lng": "18.948288", 
        "population": ""
    }, 
    {
        "city": "Jaros\u0142aw", 
        "admin": "Podkarpackie", 
        "country": "Poland", 
        "population_proper": "", 
        "iso2": "PL", 
        "capital": "minor", 
        "lat": "50.016381", 
        "lng": "22.677813", 
        "population": ""
    }, 
    {
        "city": "Lubliniec", 
        "admin": "\u015al\u0105skie", 
        "country": "Poland", 
        "population_proper": "", 
        "iso2": "PL", 
        "capital": "minor", 
        "lat": "50.672289", 
        "lng": "18.68672", 
        "population": ""
    }, 
    {
        "city": "\u0141uk\u00f3w", 
        "admin": "Lubelskie", 
        "country": "Poland", 
        "population_proper": "", 
        "iso2": "PL", 
        "capital": "minor", 
        "lat": "51.928998", 
        "lng": "22.379556", 
        "population": ""
    }, 
    {
        "city": "Nowy S\u0105cz", 
        "admin": "Ma\u0142opolskie", 
        "country": "Poland", 
        "population_proper": "", 
        "iso2": "PL", 
        "capital": "minor", 
        "lat": "49.621766", 
        "lng": "20.697053", 
        "population": ""
    }, 
    {
        "city": "Krosno Odrza\u0144skie", 
        "admin": "Lubuskie", 
        "country": "Poland", 
        "population_proper": "", 
        "iso2": "PL", 
        "capital": "minor", 
        "lat": "52.052902", 
        "lng": "15.100955", 
        "population": ""
    }, 
    {
        "city": "Pleszew", 
        "admin": "Wielkopolskie", 
        "country": "Poland", 
        "population_proper": "", 
        "iso2": "PL", 
        "capital": "minor", 
        "lat": "51.895386", 
        "lng": "17.782928", 
        "population": ""
    }, 
    {
        "city": "Toru\u0144", 
        "admin": "Kujawsko-Pomorskie", 
        "country": "Poland", 
        "population_proper": "", 
        "iso2": "PL", 
        "capital": "minor", 
        "lat": "53.035831", 
        "lng": "18.604844", 
        "population": ""
    }, 
    {
        "city": "Strzy\u017c\u00f3w", 
        "admin": "Podkarpackie", 
        "country": "Poland", 
        "population_proper": "", 
        "iso2": "PL", 
        "capital": "minor", 
        "lat": "49.872663", 
        "lng": "21.797049", 
        "population": ""
    }, 
    {
        "city": "Wyszk\u00f3w", 
        "admin": "Mazowieckie", 
        "country": "Poland", 
        "population_proper": "", 
        "iso2": "PL", 
        "capital": "minor", 
        "lat": "52.596407", 
        "lng": "21.457539", 
        "population": ""
    }, 
    {
        "city": "Szamotu\u0142y", 
        "admin": "Wielkopolskie", 
        "country": "Poland", 
        "population_proper": "", 
        "iso2": "PL", 
        "capital": "minor", 
        "lat": "52.61267", 
        "lng": "16.581905", 
        "population": ""
    }, 
    {
        "city": "Wa\u0142cz", 
        "admin": "Zachodniopomorskie", 
        "country": "Poland", 
        "population_proper": "", 
        "iso2": "PL", 
        "capital": "minor", 
        "lat": "53.277869", 
        "lng": "16.471218", 
        "population": ""
    }, 
    {
        "city": "\u015awidnica", 
        "admin": "Dolno\u015bl\u0105skie", 
        "country": "Poland", 
        "population_proper": "", 
        "iso2": "PL", 
        "capital": "minor", 
        "lat": "50.841705", 
        "lng": "16.479066", 
        "population": ""
    }, 
    {
        "city": "Grodzisk Wielkopolski", 
        "admin": "Wielkopolskie", 
        "country": "Poland", 
        "population_proper": "", 
        "iso2": "PL", 
        "capital": "minor", 
        "lat": "52.227622", 
        "lng": "16.365335", 
        "population": ""
    }, 
    {
        "city": "Strzelce Opolskie", 
        "admin": "Opolskie", 
        "country": "Poland", 
        "population_proper": "", 
        "iso2": "PL", 
        "capital": "minor", 
        "lat": "50.513404", 
        "lng": "18.305401", 
        "population": ""
    }, 
    {
        "city": "Kolno", 
        "admin": "Podlaskie", 
        "country": "Poland", 
        "population_proper": "", 
        "iso2": "PL", 
        "capital": "minor", 
        "lat": "53.409314", 
        "lng": "21.932665", 
        "population": ""
    }, 
    {
        "city": "Ko\u0142o", 
        "admin": "Wielkopolskie", 
        "country": "Poland", 
        "population_proper": "", 
        "iso2": "PL", 
        "capital": "minor", 
        "lat": "52.207244", 
        "lng": "18.631954", 
        "population": ""
    }, 
    {
        "city": "I\u0142awa", 
        "admin": "Warmi\u0144sko-Mazurskie", 
        "country": "Poland", 
        "population_proper": "", 
        "iso2": "PL", 
        "capital": "minor", 
        "lat": "53.586851", 
        "lng": "19.560983", 
        "population": ""
    }, 
    {
        "city": "Szczytno", 
        "admin": "Warmi\u0144sko-Mazurskie", 
        "country": "Poland", 
        "population_proper": "", 
        "iso2": "PL", 
        "capital": "minor", 
        "lat": "53.562589", 
        "lng": "20.987474", 
        "population": ""
    }, 
    {
        "city": "Mo\u0144ki", 
        "admin": "Podlaskie", 
        "country": "Poland", 
        "population_proper": "", 
        "iso2": "PL", 
        "capital": "minor", 
        "lat": "53.404957", 
        "lng": "22.79791", 
        "population": ""
    }, 
    {
        "city": "Cz\u0142uch\u00f3w", 
        "admin": "Pomorskie", 
        "country": "Poland", 
        "population_proper": "", 
        "iso2": "PL", 
        "capital": "minor", 
        "lat": "53.672639", 
        "lng": "17.361185", 
        "population": ""
    }, 
    {
        "city": "\u015awiedbodzin", 
        "admin": "Lubuskie", 
        "country": "Poland", 
        "population_proper": "", 
        "iso2": "PL", 
        "capital": "minor", 
        "lat": "52.247626", 
        "lng": "15.532817", 
        "population": ""
    }, 
    {
        "city": "\u015arem", 
        "admin": "Wielkopolskie", 
        "country": "Poland", 
        "population_proper": "", 
        "iso2": "PL", 
        "capital": "minor", 
        "lat": "52.088712", 
        "lng": "17.0173", 
        "population": ""
    }, 
    {
        "city": "Z\u0142otoryja", 
        "admin": "Dolno\u015bl\u0105skie", 
        "country": "Poland", 
        "population_proper": "", 
        "iso2": "PL", 
        "capital": "minor", 
        "lat": "51.123612", 
        "lng": "15.915771", 
        "population": ""
    }, 
    {
        "city": "Sandomierz", 
        "admin": "\u015awi\u0119tokrzyskie", 
        "country": "Poland", 
        "population_proper": "", 
        "iso2": "PL", 
        "capital": "minor", 
        "lat": "50.685808", 
        "lng": "21.738864", 
        "population": ""
    }, 
    {
        "city": "Z\u0142ot\u00f3w", 
        "admin": "Wielkopolskie", 
        "country": "Poland", 
        "population_proper": "", 
        "iso2": "PL", 
        "capital": "minor", 
        "lat": "53.361739", 
        "lng": "17.045241", 
        "population": ""
    }, 
    {
        "city": "Lw\u00f3wek \u015al\u0105ski", 
        "admin": "Dolno\u015bl\u0105skie", 
        "country": "Poland", 
        "population_proper": "", 
        "iso2": "PL", 
        "capital": "minor", 
        "lat": "51.108956", 
        "lng": "15.582667", 
        "population": ""
    }, 
    {
        "city": "Kutno", 
        "admin": "\u0141\u00f3dzkie", 
        "country": "Poland", 
        "population_proper": "", 
        "iso2": "PL", 
        "capital": "minor", 
        "lat": "52.228954", 
        "lng": "19.361672", 
        "population": ""
    }, 
    {
        "city": "Braniewo", 
        "admin": "Warmi\u0144sko-Mazurskie", 
        "country": "Poland", 
        "population_proper": "", 
        "iso2": "PL", 
        "capital": "minor", 
        "lat": "54.379722", 
        "lng": "19.82", 
        "population": ""
    }, 
    {
        "city": "\u0141osice", 
        "admin": "Mazowieckie", 
        "country": "Poland", 
        "population_proper": "", 
        "iso2": "PL", 
        "capital": "minor", 
        "lat": "52.211567", 
        "lng": "22.714071", 
        "population": ""
    }, 
    {
        "city": "Krosno", 
        "admin": "Podkarpackie", 
        "country": "Poland", 
        "population_proper": "", 
        "iso2": "PL", 
        "capital": "minor", 
        "lat": "49.688663", 
        "lng": "21.770579", 
        "population": ""
    }, 
    {
        "city": "Pabianice", 
        "admin": "\u0141\u00f3dzkie", 
        "country": "Poland", 
        "population_proper": "", 
        "iso2": "PL", 
        "capital": "minor", 
        "lat": "51.655351", 
        "lng": "19.345602", 
        "population": ""
    }, 
    {
        "city": "K\u0142odzko", 
        "admin": "Dolno\u015bl\u0105skie", 
        "country": "Poland", 
        "population_proper": "", 
        "iso2": "PL", 
        "capital": "minor", 
        "lat": "50.436362", 
        "lng": "16.653612", 
        "population": ""
    }, 
    {
        "city": "Przysucha", 
        "admin": "Mazowieckie", 
        "country": "Poland", 
        "population_proper": "", 
        "iso2": "PL", 
        "capital": "minor", 
        "lat": "51.359529", 
        "lng": "20.626215", 
        "population": ""
    }, 
    {
        "city": "Jan\u00f3w Lubelski", 
        "admin": "Lubelskie", 
        "country": "Poland", 
        "population_proper": "", 
        "iso2": "PL", 
        "capital": "minor", 
        "lat": "50.706673", 
        "lng": "22.412479", 
        "population": ""
    }, 
    {
        "city": "\u017bary", 
        "admin": "Lubuskie", 
        "country": "Poland", 
        "population_proper": "", 
        "iso2": "PL", 
        "capital": "minor", 
        "lat": "51.638165", 
        "lng": "15.141717", 
        "population": ""
    }, 
    {
        "city": "Drawsko Pomorskie", 
        "admin": "Zachodniopomorskie", 
        "country": "Poland", 
        "population_proper": "", 
        "iso2": "PL", 
        "capital": "minor", 
        "lat": "53.529754", 
        "lng": "15.80987", 
        "population": ""
    }
]